$GPGGA,000001,5525.1335,N,03736.9360,E,1,12,1.0,119.5,M,,,,0000*1E
$GPRMC,000001,A,5525.1335,N,03736.9360,E,10.0,,010100,,,A*7D
$GPGGA,000002,5525.1320,N,03736.9360,E,1,12,1.0,120.0,M,,,,0000*1D
$GPRMC,000002,A,5525.1320,N,03736.9360,E,10.0,,010100,,,A*7C
$GPGGA,000003,5525.1320,N,03736.9390,E,1,12,1.0,120.5,M,,,,0000*1E
$GPRMC,000003,A,5525.1320,N,03736.9390,E,10.0,,010100,,,A*7F
$GPGGA,000004,5525.1335,N,03736.9390,E,1,12,1.0,121.0,M,,,,0000*1F
$GPRMC,000004,A,5525.1335,N,03736.9390,E,10.0,,010100,,,A*7E
$GPGGA,000005,5525.1350,N,03736.9390,E,1,12,1.0,121.5,M,,,,0000*1C
$GPRMC,000005,A,5525.1350,N,03736.9390,E,10.0,,010100,,,A*7B
$GPGGA,000006,5525.1350,N,03736.9360,E,1,12,1.0,122.0,M,,,,0000*1D
$GPRMC,000006,A,5525.1350,N,03736.9360,E,10.0,,010100,,,A*7A
$GPGGA,000007,5525.1350,N,03736.9330,E,1,12,1.0,122.5,M,,,,0000*1F
$GPRMC,000007,A,5525.1350,N,03736.9330,E,10.0,,010100,,,A*79
$GPGGA,000008,5525.1335,N,03736.9330,E,1,12,1.0,123.0,M,,,,0000*1E
$GPRMC,000008,A,5525.1335,N,03736.9330,E,10.0,,010100,,,A*78
$GPGGA,000009,5525.1320,N,03736.9330,E,1,12,1.0,123.5,M,,,,0000*1D
$GPRMC,000009,A,5525.1320,N,03736.9330,E,10.0,,010100,,,A*77
$GPGGA,000010,5525.1305,N,03736.9330,E,1,12,1.0,124.0,M,,,,0000*1C
$GPRMC,000010,A,5525.1305,N,03736.9330,E,10.0,,010100,,,A*76
$GPGGA,000011,5525.1305,N,03736.9360,E,1,12,1.0,124.5,M,,,,0000*1F
$GPRMC,000011,A,5525.1305,N,03736.9360,E,10.0,,010100,,,A*75
$GPGGA,000012,5525.1305,N,03736.9390,E,1,12,1.0,125.0,M,,,,0000*1E
$GPRMC,000012,A,5525.1305,N,03736.9390,E,10.0,,010100,,,A*74
$GPGGA,000013,5525.1305,N,03736.9420,E,1,12,1.0,125.5,M,,,,0000*1D
$GPRMC,000013,A,5525.1305,N,03736.9420,E,10.0,,010100,,,A*73
$GPGGA,000014,5525.1320,N,03736.9420,E,1,12,1.0,126.0,M,,,,0000*1C
$GPRMC,000014,A,5525.1320,N,03736.9420,E,10.0,,010100,,,A*72
$GPGGA,000015,5525.1335,N,03736.9420,E,1,12,1.0,126.5,M,,,,0000*1F
$GPRMC,000015,A,5525.1335,N,03736.9420,E,10.0,,010100,,,A*71
$GPGGA,000016,5525.1350,N,03736.9420,E,1,12,1.0,127.0,M,,,,0000*1E
$GPRMC,000016,A,5525.1350,N,03736.9420,E,10.0,,010100,,,A*70
$GPGGA,000017,5525.1365,N,03736.9420,E,1,12,1.0,127.5,M,,,,0000*1D
$GPRMC,000017,A,5525.1365,N,03736.9420,E,10.0,,010100,,,A*7F
$GPGGA,000018,5525.1365,N,03736.9390,E,1,12,1.0,128.0,M,,,,0000*1C
$GPRMC,000018,A,5525.1365,N,03736.9390,E,10.0,,010100,,,A*7E
$GPGGA,000019,5525.1365,N,03736.9360,E,1,12,1.0,128.5,M,,,,0000*1F
$GPRMC,000019,A,5525.1365,N,03736.9360,E,10.0,,010100,,,A*7D
$GPGGA,000020,5525.1365,N,03736.9330,E,1,12,1.0,129.0,M,,,,0000*1E
$GPRMC,000020,A,5525.1365,N,03736.9330,E,10.0,,010100,,,A*7C
$GPGGA,000021,5525.1365,N,03736.9300,E,1,12,1.0,129.5,M,,,,0000*1D
$GPRMC,000021,A,5525.1365,N,03736.9300,E,10.0,,010100,,,A*7B
$GPGGA,000022,5525.1350,N,03736.9300,E,1,12,1.0,130.0,M,,,,0000*1C
$GPRMC,000022,A,5525.1350,N,03736.9300,E,10.0,,010100,,,A*7A
$GPGGA,000023,5525.1335,N,03736.9300,E,1,12,1.0,130.5,M,,,,0000*1F
$GPRMC,000023,A,5525.1335,N,03736.9300,E,10.0,,010100,,,A*79
$GPGGA,000024,5525.1320,N,03736.9300,E,1,12,1.0,131.0,M,,,,0000*1E
$GPRMC,000024,A,5525.1320,N,03736.9300,E,10.0,,010100,,,A*78
$GPGGA,000025,5525.1305,N,03736.9300,E,1,12,1.0,131.5,M,,,,0000*1D
$GPRMC,000025,A,5525.1305,N,03736.9300,E,10.0,,010100,,,A*77
$GPGGA,000026,5525.1290,N,03736.9300,E,1,12,1.0,132.0,M,,,,0000*1C
$GPRMC,000026,A,5525.1290,N,03736.9300,E,10.0,,010100,,,A*76
$GPGGA,000027,5525.1290,N,03736.9330,E,1,12,1.0,132.5,M,,,,0000*1F
$GPRMC,000027,A,5525.1290,N,03736.9330,E,10.0,,010100,,,A*75
$GPGGA,000028,5525.1290,N,03736.9360,E,1,12,1.0,133.0,M,,,,0000*1E
$GPRMC,000028,A,5525.1290,N,03736.9360,E,10.0,,010100,,,A*74
$GPGGA,000029,5525.1290,N,03736.9390,E,1,12,1.0,133.5,M,,,,0000*1D
$GPRMC,000029,A,5525.1290,N,03736.9390,E,10.0,,010100,,,A*73
$GPGGA,000030,5525.1290,N,03736.9420,E,1,12,1.0,134.0,M,,,,0000*1C
$GPRMC,000030,A,5525.1290,N,03736.9420,E,10.0,,010100,,,A*72
$GPGGA,000031,5525.1290,N,03736.9450,E,1,12,1.0,134.5,M,,,,0000*1F
$GPRMC,000031,A,5525.1290,N,03736.9450,E,10.0,,010100,,,A*71
$GPGGA,000032,5525.1305,N,03736.9450,E,1,12,1.0,135.0,M,,,,0000*1E
$GPRMC,000032,A,5525.1305,N,03736.9450,E,10.0,,010100,,,A*70
$GPGGA,000033,5525.1320,N,03736.9450,E,1,12,1.0,135.5,M,,,,0000*1D
$GPRMC,000033,A,5525.1320,N,03736.9450,E,10.0,,010100,,,A*7F
$GPGGA,000034,5525.1335,N,03736.9450,E,1,12,1.0,136.0,M,,,,0000*1C
$GPRMC,000034,A,5525.1335,N,03736.9450,E,10.0,,010100,,,A*7E
$GPGGA,000035,5525.1350,N,03736.9450,E,1,12,1.0,136.5,M,,,,0000*1F
$GPRMC,000035,A,5525.1350,N,03736.9450,E,10.0,,010100,,,A*7D
$GPGGA,000036,5525.1365,N,03736.9450,E,1,12,1.0,137.0,M,,,,0000*1E
$GPRMC,000036,A,5525.1365,N,03736.9450,E,10.0,,010100,,,A*7C
$GPGGA,000037,5525.1380,N,03736.9450,E,1,12,1.0,137.5,M,,,,0000*1D
$GPRMC,000037,A,5525.1380,N,03736.9450,E,10.0,,010100,,,A*7B
$GPGGA,000038,5525.1380,N,03736.9420,E,1,12,1.0,138.0,M,,,,0000*1C
$GPRMC,000038,A,5525.1380,N,03736.9420,E,10.0,,010100,,,A*7A
$GPGGA,000039,5525.1380,N,03736.9390,E,1,12,1.0,138.5,M,,,,0000*1F
$GPRMC,000039,A,5525.1380,N,03736.9390,E,10.0,,010100,,,A*79
$GPGGA,000040,5525.1380,N,03736.9360,E,1,12,1.0,139.0,M,,,,0000*1E
$GPRMC,000040,A,5525.1380,N,03736.9360,E,10.0,,010100,,,A*78
$GPGGA,000041,5525.1380,N,03736.9330,E,1,12,1.0,139.5,M,,,,0000*1D
$GPRMC,000041,A,5525.1380,N,03736.9330,E,10.0,,010100,,,A*77
$GPGGA,000042,5525.1380,N,03736.9300,E,1,12,1.0,140.0,M,,,,0000*1C
$GPRMC,000042,A,5525.1380,N,03736.9300,E,10.0,,010100,,,A*76
$GPGGA,000043,5525.1380,N,03736.9270,E,1,12,1.0,140.5,M,,,,0000*1F
$GPRMC,000043,A,5525.1380,N,03736.9270,E,10.0,,010100,,,A*75
$GPGGA,000044,5525.1365,N,03736.9270,E,1,12,1.0,141.0,M,,,,0000*1E
$GPRMC,000044,A,5525.1365,N,03736.9270,E,10.0,,010100,,,A*74
$GPGGA,000045,5525.1350,N,03736.9270,E,1,12,1.0,141.5,M,,,,0000*1D
$GPRMC,000045,A,5525.1350,N,03736.9270,E,10.0,,010100,,,A*73
$GPGGA,000046,5525.1335,N,03736.9270,E,1,12,1.0,142.0,M,,,,0000*1C
$GPRMC,000046,A,5525.1335,N,03736.9270,E,10.0,,010100,,,A*72
$GPGGA,000047,5525.1320,N,03736.9270,E,1,12,1.0,142.5,M,,,,0000*1F
$GPRMC,000047,A,5525.1320,N,03736.9270,E,10.0,,010100,,,A*71
$GPGGA,000048,5525.1305,N,03736.9270,E,1,12,1.0,143.0,M,,,,0000*1E
$GPRMC,000048,A,5525.1305,N,03736.9270,E,10.0,,010100,,,A*70
$GPGGA,000049,5525.1290,N,03736.9270,E,1,12,1.0,143.5,M,,,,0000*1D
$GPRMC,000049,A,5525.1290,N,03736.9270,E,10.0,,010100,,,A*7F
$GPGGA,000050,5525.1275,N,03736.9270,E,1,12,1.0,144.0,M,,,,0000*1C
$GPRMC,000050,A,5525.1275,N,03736.9270,E,10.0,,010100,,,A*7E
$GPGGA,000051,5525.1275,N,03736.9300,E,1,12,1.0,144.5,M,,,,0000*1F
$GPRMC,000051,A,5525.1275,N,03736.9300,E,10.0,,010100,,,A*7D
$GPGGA,000052,5525.1275,N,03736.9330,E,1,12,1.0,145.0,M,,,,0000*1E
$GPRMC,000052,A,5525.1275,N,03736.9330,E,10.0,,010100,,,A*7C
$GPGGA,000053,5525.1275,N,03736.9360,E,1,12,1.0,145.5,M,,,,0000*1D
$GPRMC,000053,A,5525.1275,N,03736.9360,E,10.0,,010100,,,A*7B
$GPGGA,000054,5525.1275,N,03736.9390,E,1,12,1.0,146.0,M,,,,0000*1C
$GPRMC,000054,A,5525.1275,N,03736.9390,E,10.0,,010100,,,A*7A
$GPGGA,000055,5525.1275,N,03736.9420,E,1,12,1.0,146.5,M,,,,0000*1F
$GPRMC,000055,A,5525.1275,N,03736.9420,E,10.0,,010100,,,A*79
$GPGGA,000056,5525.1275,N,03736.9450,E,1,12,1.0,147.0,M,,,,0000*1E
$GPRMC,000056,A,5525.1275,N,03736.9450,E,10.0,,010100,,,A*78
$GPGGA,000057,5525.1275,N,03736.9480,E,1,12,1.0,147.5,M,,,,0000*1D
$GPRMC,000057,A,5525.1275,N,03736.9480,E,10.0,,010100,,,A*77
$GPGGA,000058,5525.1290,N,03736.9480,E,1,12,1.0,148.0,M,,,,0000*1C
$GPRMC,000058,A,5525.1290,N,03736.9480,E,10.0,,010100,,,A*76
$GPGGA,000059,5525.1305,N,03736.9480,E,1,12,1.0,148.5,M,,,,0000*1F
$GPRMC,000059,A,5525.1305,N,03736.9480,E,10.0,,010100,,,A*75
$GPGGA,000060,5525.1320,N,03736.9480,E,1,12,1.0,149.0,M,,,,0000*1E
$GPRMC,000060,A,5525.1320,N,03736.9480,E,10.0,,010100,,,A*74
$GPGGA,000061,5525.1335,N,03736.9480,E,1,12,1.0,149.5,M,,,,0000*1D
$GPRMC,000061,A,5525.1335,N,03736.9480,E,10.0,,010100,,,A*73
$GPGGA,000062,5525.1350,N,03736.9480,E,1,12,1.0,150.0,M,,,,0000*1C
$GPRMC,000062,A,5525.1350,N,03736.9480,E,10.0,,010100,,,A*72
$GPGGA,000063,5525.1365,N,03736.9480,E,1,12,1.0,150.5,M,,,,0000*1F
$GPRMC,000063,A,5525.1365,N,03736.9480,E,10.0,,010100,,,A*71
$GPGGA,000064,5525.1380,N,03736.9480,E,1,12,1.0,151.0,M,,,,0000*1E
$GPRMC,000064,A,5525.1380,N,03736.9480,E,10.0,,010100,,,A*70
$GPGGA,000065,5525.1395,N,03736.9480,E,1,12,1.0,151.5,M,,,,0000*1D
$GPRMC,000065,A,5525.1395,N,03736.9480,E,10.0,,010100,,,A*7F
$GPGGA,000066,5525.1395,N,03736.9450,E,1,12,1.0,152.0,M,,,,0000*1C
$GPRMC,000066,A,5525.1395,N,03736.9450,E,10.0,,010100,,,A*7E
$GPGGA,000067,5525.1395,N,03736.9420,E,1,12,1.0,152.5,M,,,,0000*1F
$GPRMC,000067,A,5525.1395,N,03736.9420,E,10.0,,010100,,,A*7D
$GPGGA,000068,5525.1395,N,03736.9390,E,1,12,1.0,153.0,M,,,,0000*1E
$GPRMC,000068,A,5525.1395,N,03736.9390,E,10.0,,010100,,,A*7C
$GPGGA,000069,5525.1395,N,03736.9360,E,1,12,1.0,153.5,M,,,,0000*1D
$GPRMC,000069,A,5525.1395,N,03736.9360,E,10.0,,010100,,,A*7B
$GPGGA,000070,5525.1395,N,03736.9330,E,1,12,1.0,154.0,M,,,,0000*1C
$GPRMC,000070,A,5525.1395,N,03736.9330,E,10.0,,010100,,,A*7A
$GPGGA,000071,5525.1395,N,03736.9300,E,1,12,1.0,154.5,M,,,,0000*1F
$GPRMC,000071,A,5525.1395,N,03736.9300,E,10.0,,010100,,,A*79
$GPGGA,000072,5525.1395,N,03736.9270,E,1,12,1.0,155.0,M,,,,0000*1E
$GPRMC,000072,A,5525.1395,N,03736.9270,E,10.0,,010100,,,A*78
$GPGGA,000073,5525.1395,N,03736.9240,E,1,12,1.0,155.5,M,,,,0000*1D
$GPRMC,000073,A,5525.1395,N,03736.9240,E,10.0,,010100,,,A*77
$GPGGA,000074,5525.1380,N,03736.9240,E,1,12,1.0,156.0,M,,,,0000*1C
$GPRMC,000074,A,5525.1380,N,03736.9240,E,10.0,,010100,,,A*76
$GPGGA,000075,5525.1365,N,03736.9240,E,1,12,1.0,156.5,M,,,,0000*1F
$GPRMC,000075,A,5525.1365,N,03736.9240,E,10.0,,010100,,,A*75
$GPGGA,000076,5525.1350,N,03736.9240,E,1,12,1.0,157.0,M,,,,0000*1E
$GPRMC,000076,A,5525.1350,N,03736.9240,E,10.0,,010100,,,A*74
$GPGGA,000077,5525.1335,N,03736.9240,E,1,12,1.0,157.5,M,,,,0000*1D
$GPRMC,000077,A,5525.1335,N,03736.9240,E,10.0,,010100,,,A*73
$GPGGA,000078,5525.1320,N,03736.9240,E,1,12,1.0,158.0,M,,,,0000*1C
$GPRMC,000078,A,5525.1320,N,03736.9240,E,10.0,,010100,,,A*72
$GPGGA,000079,5525.1305,N,03736.9240,E,1,12,1.0,158.5,M,,,,0000*1F
$GPRMC,000079,A,5525.1305,N,03736.9240,E,10.0,,010100,,,A*71
$GPGGA,000080,5525.1290,N,03736.9240,E,1,12,1.0,159.0,M,,,,0000*1E
$GPRMC,000080,A,5525.1290,N,03736.9240,E,10.0,,010100,,,A*70
$GPGGA,000081,5525.1275,N,03736.9240,E,1,12,1.0,159.5,M,,,,0000*1D
$GPRMC,000081,A,5525.1275,N,03736.9240,E,10.0,,010100,,,A*7F
$GPGGA,000082,5525.1260,N,03736.9240,E,1,12,1.0,160.0,M,,,,0000*1C
$GPRMC,000082,A,5525.1260,N,03736.9240,E,10.0,,010100,,,A*7E
$GPGGA,000083,5525.1260,N,03736.9270,E,1,12,1.0,160.5,M,,,,0000*1F
$GPRMC,000083,A,5525.1260,N,03736.9270,E,10.0,,010100,,,A*7D
$GPGGA,000084,5525.1260,N,03736.9300,E,1,12,1.0,161.0,M,,,,0000*1E
$GPRMC,000084,A,5525.1260,N,03736.9300,E,10.0,,010100,,,A*7C
$GPGGA,000085,5525.1260,N,03736.9330,E,1,12,1.0,161.5,M,,,,0000*1D
$GPRMC,000085,A,5525.1260,N,03736.9330,E,10.0,,010100,,,A*7B
$GPGGA,000086,5525.1260,N,03736.9360,E,1,12,1.0,162.0,M,,,,0000*1C
$GPRMC,000086,A,5525.1260,N,03736.9360,E,10.0,,010100,,,A*7A
$GPGGA,000087,5525.1260,N,03736.9390,E,1,12,1.0,162.5,M,,,,0000*1F
$GPRMC,000087,A,5525.1260,N,03736.9390,E,10.0,,010100,,,A*79
$GPGGA,000088,5525.1260,N,03736.9420,E,1,12,1.0,163.0,M,,,,0000*1E
$GPRMC,000088,A,5525.1260,N,03736.9420,E,10.0,,010100,,,A*78
$GPGGA,000089,5525.1260,N,03736.9450,E,1,12,1.0,163.5,M,,,,0000*1D
$GPRMC,000089,A,5525.1260,N,03736.9450,E,10.0,,010100,,,A*77
$GPGGA,000090,5525.1260,N,03736.9480,E,1,12,1.0,164.0,M,,,,0000*1C
$GPRMC,000090,A,5525.1260,N,03736.9480,E,10.0,,010100,,,A*76
$GPGGA,000091,5525.1260,N,03736.9510,E,1,12,1.0,164.5,M,,,,0000*1F
$GPRMC,000091,A,5525.1260,N,03736.9510,E,10.0,,010100,,,A*75
$GPGGA,000092,5525.1275,N,03736.9510,E,1,12,1.0,165.0,M,,,,0000*1E
$GPRMC,000092,A,5525.1275,N,03736.9510,E,10.0,,010100,,,A*74
$GPGGA,000093,5525.1290,N,03736.9510,E,1,12,1.0,165.5,M,,,,0000*1D
$GPRMC,000093,A,5525.1290,N,03736.9510,E,10.0,,010100,,,A*73
$GPGGA,000094,5525.1305,N,03736.9510,E,1,12,1.0,166.0,M,,,,0000*1C
$GPRMC,000094,A,5525.1305,N,03736.9510,E,10.0,,010100,,,A*72
$GPGGA,000095,5525.1320,N,03736.9510,E,1,12,1.0,166.5,M,,,,0000*1F
$GPRMC,000095,A,5525.1320,N,03736.9510,E,10.0,,010100,,,A*71
$GPGGA,000096,5525.1335,N,03736.9510,E,1,12,1.0,167.0,M,,,,0000*1E
$GPRMC,000096,A,5525.1335,N,03736.9510,E,10.0,,010100,,,A*70
$GPGGA,000097,5525.1350,N,03736.9510,E,1,12,1.0,167.5,M,,,,0000*1D
$GPRMC,000097,A,5525.1350,N,03736.9510,E,10.0,,010100,,,A*7F
$GPGGA,000098,5525.1365,N,03736.9510,E,1,12,1.0,168.0,M,,,,0000*1C
$GPRMC,000098,A,5525.1365,N,03736.9510,E,10.0,,010100,,,A*7E
$GPGGA,000099,5525.1380,N,03736.9510,E,1,12,1.0,168.5,M,,,,0000*1F
$GPRMC,000099,A,5525.1380,N,03736.9510,E,10.0,,010100,,,A*7D
$GPGGA,000100,5525.1395,N,03736.9510,E,1,12,1.0,169.0,M,,,,0000*1E
$GPRMC,000100,A,5525.1395,N,03736.9510,E,10.0,,010100,,,A*7C
$GPGGA,000101,5525.1410,N,03736.9510,E,1,12,1.0,169.5,M,,,,0000*1D
$GPRMC,000101,A,5525.1410,N,03736.9510,E,10.0,,010100,,,A*7B